City_ID,City,Lat,Lng,Max Temp,Humidity,Cloudiness,Wind Speed,Country,Date
0,key west,24.5557,-81.7826,26.67,87,100,1.34,US,1728997217
1,sisimiut,66.9395,-53.6735,-1.29,75,98,1.83,GL,1728997470
2,kulachi,31.9286,70.4592,32.75,14,0,1.73,PK,1728997471
3,nadym,65.5333,72.5167,0.51,92,100,2.05,RU,1728997406
4,saidpur,25.7777,88.8917,25.35,76,28,1.76,BD,1728997473
5,bethel,41.3712,-73.414,7.31,83,0,3.6,US,1728997474
6,olonkinbyen,70.9221,-8.7187,-1.71,67,100,3.77,SJ,1728997475
7,francisco sa,-16.4758,-43.4883,26.68,45,100,5.42,BR,1728997476
8,korocha,50.8107,37.1953,10.35,75,100,3.74,RU,1728997477
9,puerto natales,-51.7236,-72.4875,10.25,71,75,10.8,CL,1728997254
10,albany,42.6001,-73.9662,5.25,76,99,1.34,US,1728997208
11,aral,40.5156,81.2636,20.97,20,29,3.94,CN,1728997481
12,bengkulu,-3.8004,102.2655,25.78,78,100,1.69,ID,1728997482
13,wailua homesteads,22.0669,-159.378,23.96,89,32,5.21,US,1728997483
14,constantia,44.1833,28.65,20.39,67,5,6.71,RO,1728997484
15,aitape,-3.1374,142.3475,26.97,82,100,1.72,PG,1728997486
16,maintirano,-18.0667,44.0167,27.45,63,0,6.07,MG,1728997487
17,nowshahr,36.649,51.496,19.97,94,100,0.0,IR,1728997488
18,bilibino,68.0546,166.4372,-10.39,97,98,2.96,RU,1728997489
19,tolanaro,-25.0319,46.9987,27.04,65,20,5.14,MG,1728997490
20,manta,-0.95,-80.7333,21.88,88,100,4.12,EC,1728997316
21,mchinji,-13.7984,32.8802,29.5,32,78,3.68,MW,1728997492
22,sao vicente,-23.9631,-46.3919,24.43,33,75,2.24,BR,1728997493
23,vilyuchinsk,52.9306,158.4028,1.15,78,0,1.13,RU,1728997494
24,susuman,62.7833,148.1667,-4.84,96,100,1.95,RU,1728997496
25,hakui,36.8833,136.7833,21.25,77,100,1.22,JP,1728997497
26,qaqortoq,60.7167,-46.0333,1.66,87,83,1.21,GL,1728997498
27,jamestown,42.097,-79.2353,5.01,98,100,4.12,US,1728997499
28,gemena,3.25,19.7667,22.51,96,100,2.1,CD,1728997500
29,kinablangan,7.6947,126.5503,25.88,85,40,1.17,PH,1728997501
30,fort portal,0.6617,30.2748,19.32,83,100,1.05,UG,1728997502
31,luderitz,-26.6481,15.1594,17.29,73,4,4.49,NA,1728997503
32,edinburgh of the seven seas,-37.0676,-12.3116,11.48,64,3,5.87,SH,1728997505
33,iskateley,67.6803,53.1512,1.1,80,100,5.53,RU,1728997506
34,talnakh,69.4865,88.3972,-18.16,86,6,4.4,RU,1728997507
35,adamstown,-25.066,-130.1015,21.09,85,39,7.47,PN,1728997360
36,waitangi,-43.9535,-176.5597,6.57,82,100,2.68,NZ,1728997509
37,st. john's,47.5649,-52.7093,11.75,97,100,8.75,CA,1728997312
38,labrador city,52.9463,-66.9114,-1.05,94,100,32.19,CA,1728997338
39,port isabel,26.0734,-97.2086,20.57,92,0,1.54,US,1728997512
40,port-aux-francais,-49.35,70.2167,1.79,64,5,16.64,TF,1728997513
41,port lincoln,-34.7333,135.8667,17.27,81,5,3.42,AU,1728997515
42,egilsstadir,65.2653,-14.3948,2.95,100,100,4.12,IS,1728997516
43,punta arenas,-53.15,-70.9167,13.06,50,40,15.95,CL,1728997517
44,neyriz,29.1988,54.3278,26.02,17,22,3.19,IR,1728997283
45,keflavik,64.0049,-22.5624,6.24,100,100,5.14,IS,1728997519
46,selfoss,63.9331,-20.9971,7.8,84,100,4.18,IS,1728997520
47,ribeira grande,38.5167,-28.7,22.1,68,40,7.72,PT,1728997521
48,port mathurin,-19.6833,63.4167,22.69,72,9,6.75,MU,1728997523
49,pahrump,36.2083,-115.9839,15.7,23,0,1.26,US,1728997463
50,kalmunai,7.4167,81.8167,26.12,76,100,0.6,LK,1728997525
51,barra de santo antonio,-9.4047,-35.5072,27.03,66,23,4.68,BR,1728997526
52,port augusta,-32.5,137.7667,21.55,55,6,5.58,AU,1728997527
53,hithadhoo,-0.6,73.0833,28.51,73,64,4.44,MV,1728997528
54,atafu village,-8.5421,-172.5159,28.14,73,99,4.59,TK,1728997529
55,bor,56.3567,44.0669,4.96,78,100,5.42,RU,1728997531
56,mount isa,-20.7333,139.5,21.87,68,0,0.0,AU,1728997532
57,newborough,52.6389,-0.2233,14.49,88,100,3.6,GB,1728997533
58,tralee,52.2704,-9.7026,16.14,94,100,5.66,IE,1728997534
59,samdari,25.8167,72.5833,33.94,23,52,2.09,IN,1728997536
60,boulsa,12.6675,-0.5758,34.59,35,55,3.65,BF,1728997537
61,uturoa,-16.7333,-151.4333,24.25,73,0,2.47,PF,1728997538
62,as samawah,31.332,45.2944,37.76,11,0,2.11,IQ,1728997539
63,port elizabeth,-33.918,25.5701,19.16,57,20,8.75,ZA,1728997241
64,tsetserleg,47.475,101.4542,0.7,100,100,1.72,MN,1728997542
65,sretensk,52.2453,117.7093,-4.86,89,94,1.0,RU,1728997543
66,grytviken,-54.2811,-36.5092,2.6,98,100,6.46,GS,1728997544
67,hovd,48.0056,91.6419,5.36,56,19,4.24,MN,1728997527
68,jose panganiban,14.2906,122.6917,25.77,91,80,2.09,PH,1728997546
69,arroyito,-31.4202,-63.05,22.32,71,40,5.08,AR,1728997547
70,kibre mengist,5.8833,38.9833,19.6,95,74,1.25,ET,1728997548
71,kapuskasing,49.4169,-82.4331,2.05,100,100,6.69,CA,1728997549
72,usinsk,65.9939,57.5281,-0.47,82,71,7.16,RU,1728997550
73,thompson,55.7435,-97.8558,-1.91,93,20,2.06,CA,1728997552
74,nalundan,9.75,123.0667,24.36,83,99,0.68,PH,1728997553
75,flying fish cove,-10.4217,105.6791,25.82,83,20,4.12,CX,1728997554
76,lazaro cardenas,17.9583,-102.2,25.13,87,43,1.68,MX,1728997332
77,viedma,-40.8135,-62.9967,18.66,64,0,2.1,AR,1728997556
78,beroroha,-21.6667,45.1667,33.79,18,51,7.46,MG,1728997557
79,mugia,43.1041,-9.2179,19.39,89,100,3.52,ES,1728997558
80,balapur,20.6667,76.7667,27.63,76,99,2.41,IN,1728997559
81,georgetown,5.4112,100.3354,28.97,75,40,3.6,MY,1728997470
82,port-vila,-17.7338,168.3219,24.78,88,100,3.09,VU,1728997273
83,stanley,54.868,-1.6985,10.66,90,100,2.57,GB,1728997563
84,udachny,66.4167,112.4,-12.02,94,100,7.0,RU,1728997335
85,tura,25.5198,90.2201,22.37,89,19,1.33,IN,1728997565
86,aasiaat,68.7098,-52.8699,-4.17,94,93,3.28,GL,1728997398
87,petropavlovsk-kamchatsky,53.0452,158.6483,0.33,75,0,1.0,RU,1728997302
88,richards bay,-28.783,32.0377,21.1,49,12,6.56,ZA,1728997568
89,asbe teferi,9.0833,40.8667,26.17,33,93,3.85,ET,1728997569
90,cruzeiro do sul,-29.5128,-51.9853,20.29,87,100,1.59,BR,1728997570
91,whitehorse,60.7161,-135.0538,2.79,87,75,5.66,CA,1728997571
92,hasaki,35.7333,140.8333,23.64,72,100,5.24,JP,1728997572
93,namibe,-15.1961,12.1522,22.06,81,6,4.81,AO,1728997574
94,chauk,20.8833,94.8167,29.87,67,25,2.6,MM,1728997572
95,saint-pierre,-21.3393,55.4781,25.82,65,0,3.6,RE,1728997576
96,newman,37.3138,-121.0208,13.91,83,0,0.89,US,1728997577
97,klyuchi,52.2667,79.1667,-0.52,66,100,2.87,RU,1728997578
98,badger,64.8,-147.5333,-0.36,91,100,0.0,US,1728997579
99,ancud,-41.8697,-73.8203,8.37,80,100,5.15,CL,1728997580
100,acarau,-2.8856,-40.12,30.8,55,39,7.87,BR,1728997582
101,papao,-17.75,-149.55,22.82,77,5,2.39,PF,1728997583
102,west island,-12.1568,96.8225,26.99,89,40,7.72,CC,1728997584
103,bredasdorp,-34.5322,20.0403,19.94,41,0,11.99,ZA,1728997585
104,minot air force base,48.4209,-101.3391,2.19,73,100,5.82,US,1728997327
105,argo,37.6333,22.7333,27.65,28,77,1.91,GR,1728997588
106,hamilton,39.1834,-84.5333,8.01,83,100,0.89,US,1728997237
107,cill airne,52.05,-9.5167,16.03,94,100,5.66,IE,1728997590
108,kerikeri,-35.2268,173.9474,9.95,84,81,1.64,NZ,1728997591
109,blackmans bay,-43.0167,147.3167,10.07,73,50,0.89,AU,1728997592
110,antsiranana,-12.2787,49.2917,31.42,40,20,3.09,MG,1728997594
111,anadyr,64.75,177.4833,-1.11,86,100,3.0,RU,1728997595
112,tete,-16.1564,33.5867,39.05,29,75,4.63,MZ,1728997596
113,serhetabat,35.2799,62.3438,21.01,36,77,3.82,TM,1728997597
114,saint-joseph,-21.3667,55.6167,25.21,80,32,0.75,RE,1728997598
115,isafjordur,66.0755,-23.124,1.02,75,75,1.03,IS,1728997600
116,college,64.8569,-147.8028,-0.31,86,100,0.0,US,1728997601
117,nar'yan-mar,67.6713,53.087,1.13,80,100,5.53,RU,1728997602
118,loncoche,-39.3667,-72.6333,12.02,63,100,1.4,CL,1728997603
119,gamba,-2.65,10.0,27.19,70,38,4.44,GA,1728997604
120,labytnangi,66.6572,66.4183,-0.25,97,100,0.93,RU,1728997605
121,chonchi,-42.6128,-73.8092,12.29,79,100,0.99,CL,1728997410
122,jalai nur,49.45,117.7,1.19,47,100,4.09,CN,1728997519
123,yellowknife,62.456,-114.3525,3.01,100,100,5.14,CA,1728997608
124,obo,5.3998,26.4869,28.35,65,100,1.78,CF,1728997609
125,queenstown,-31.8976,26.8753,17.73,27,55,9.24,ZA,1728997610
126,alice springs,-23.7,133.8833,25.75,36,40,0.51,AU,1728997611
127,dame-marie,18.5667,-74.4167,28.37,75,100,0.46,HT,1728997613
128,margaret river,-33.95,115.0667,12.28,75,9,2.29,AU,1728997614
129,papatowai,-46.5619,169.4708,5.1,82,57,2.79,NZ,1728997615
130,avarua,-21.2078,-159.775,21.03,68,75,1.54,CK,1728997616
131,uporovo,56.3109,66.2693,0.7,80,8,1.52,RU,1728997617
132,sinop,41.7711,34.8709,14.54,83,62,3.19,TR,1728997618
133,ust-nera,64.5667,143.2,-11.93,94,100,2.3,RU,1728997619
134,longyearbyen,78.2186,15.6401,3.91,70,75,5.14,SJ,1728997620
135,hermanus,-34.4187,19.2345,21.0,37,0,10.2,ZA,1728997621
136,tangalle,6.024,80.7911,25.83,85,100,5.72,LK,1728997623
137,calvinia,-31.4707,19.776,27.47,9,4,8.37,ZA,1728997489
138,chadron,42.8294,-102.9999,1.65,74,0,3.09,US,1728997625
139,el fasher,13.6279,25.3494,35.16,15,1,2.98,SD,1728997335
140,lorengau,-2.0226,147.2712,27.63,78,100,2.32,PG,1728997627
141,miri,4.4148,114.0089,26.98,83,100,2.55,MY,1728997628
142,east london,-33.0153,27.9116,17.02,53,72,6.11,ZA,1728997630
143,nabire,-3.3667,135.4833,25.16,93,100,1.78,ID,1728997631
144,saldanha,-33.0117,17.9442,17.47,58,4,5.69,ZA,1728997632
145,yelan',50.949,43.7378,4.2,87,100,5.26,RU,1728997633
146,el nido,11.1858,119.3956,26.19,97,87,1.14,PH,1728997635
147,horta,38.5333,-28.6333,21.68,68,40,7.72,PT,1728997636
148,fortuna,40.5982,-124.1573,11.86,98,0,4.12,US,1728997637
149,saipan,15.1355,145.701,28.39,83,20,1.54,MP,1728997638
150,prince george,53.9166,-122.753,2.01,100,100,1.03,CA,1728997433
151,rangapara,26.8167,92.65,22.65,88,8,2.33,IN,1728997640
152,pailon,-17.65,-62.75,31.88,42,100,5.43,BO,1728997641
153,mount pearl,47.5166,-52.7813,11.52,98,100,8.75,CA,1728997642
154,carnarvon,-24.8667,113.6333,20.75,66,12,9.0,AU,1728997644
155,bikenibeu village,1.3673,173.1241,28.61,75,7,9.01,KI,1728997645
156,lihue,21.9789,-159.3672,25.77,78,0,6.69,US,1728997646
157,hinna,10.3043,11.4991,30.6,53,27,0.86,NG,1728997648
158,ihosy,-22.4,46.1167,30.22,19,48,6.39,MG,1728997639
159,ilulissat,69.2167,-51.1,-1.99,80,100,7.2,GL,1728997650
160,lebu,-37.6167,-73.65,12.24,63,100,2.79,CL,1728997651
161,mar del plata,-38.0023,-57.5575,17.01,97,75,2.57,AR,1728997353
162,antunez,19.0167,-102.2,21.69,91,100,0.37,MX,1728997654
163,lushun,38.8,121.2667,11.12,42,0,7.96,CN,1728997655
164,as-suwayda,32.709,36.5695,26.34,32,0,4.47,SY,1728997656
165,ondjiva,-17.0667,15.7333,36.25,12,67,2.74,AO,1728997657
166,ushuaia,-54.8,-68.3,12.81,41,0,10.29,AR,1728997651
167,chillicothe,39.3331,-82.9824,7.17,98,100,0.0,US,1728997495
168,invercargill,-46.4,168.35,5.57,85,42,0.45,NZ,1728997660
169,gandajika,-6.75,23.95,31.92,39,80,2.66,CD,1728997661
170,tofol,5.3248,163.0078,28.98,76,100,4.94,FM,1728997663
171,puerto tirol,-27.3722,-59.0821,23.0,83,100,6.69,AR,1728997664
172,fecamp,49.7579,0.3746,18.95,75,100,7.4,FR,1728997665
173,santa cruz,-17.8,-63.1667,28.03,69,18,6.69,BO,1728997594
174,kone,-21.0595,164.8658,20.66,82,100,1.78,NC,1728997667
175,amvrosiyivka,47.7935,38.4777,11.28,65,68,3.77,UA,1728997668
176,bechar,31.6167,-2.2167,22.48,39,100,7.24,DZ,1728997669
177,sao tome,0.3365,6.7273,27.49,74,95,2.48,ST,1728997670
178,belyy yar,53.6039,91.3903,-0.06,74,16,2.0,RU,1728997671
179,hammerfest,70.6634,23.6821,4.25,81,75,5.14,NO,1728997673
180,zhanaozen,43.3,52.8,11.14,19,10,5.02,KZ,1728997674
181,machico,32.7,-16.7667,27.35,61,40,3.09,PT,1728997675
182,port alfred,-33.5906,26.891,18.43,55,66,3.58,ZA,1728997676
183,jabor,5.921,169.6434,29.03,76,46,5.54,MH,1728997677
184,lhasa,29.65,91.1,6.84,83,100,2.33,CN,1728997678
185,kingston,17.997,-76.7936,27.53,83,40,5.66,JM,1728997183
186,altay,47.8667,88.1167,5.5,54,100,2.32,CN,1728997516
187,luchegorsk,46.4764,134.2569,5.0,68,63,3.61,RU,1728997681
188,amherst,41.3978,-82.2224,6.1,95,98,1.34,US,1728997683
189,margate,51.3813,1.3862,16.04,85,100,0.89,GB,1728997684
190,tanjung pandan,-2.75,107.65,26.73,79,10,2.64,ID,1728997685
191,codrington,-38.2667,141.9667,13.03,95,0,3.87,AU,1728997686
192,iqaluit,63.7506,-68.5145,-1.15,92,75,4.12,CA,1728997687
193,crane,31.3974,-102.3501,18.47,35,0,3.84,US,1728997688
194,cosala,24.4125,-106.6908,19.34,79,0,1.53,MX,1728997689
195,leo,11.1,-2.1,31.94,48,7,3.48,BF,1728997690
196,kikwit,-5.041,18.8162,31.96,43,95,1.93,CD,1728997691
197,gadzhiyevo,69.2551,33.3362,4.29,96,100,3.95,RU,1728997693
198,nova sintra,14.8667,-24.7167,27.32,75,51,5.37,CV,1728997694
199,boca suno,-0.7167,-77.1333,23.69,89,92,0.99,EC,1728997695
200,ravar,31.2656,56.8055,29.38,13,35,4.25,IR,1728997696
201,cabo san lucas,22.8909,-109.9124,24.5,69,1,3.97,MX,1728997536
202,enewetak,11.3474,162.3373,28.61,79,100,6.52,MH,1728997698
203,el calafate,-50.3408,-72.2768,7.13,76,100,1.5,AR,1728997699
204,ta`u,-14.2336,-169.5144,26.63,73,20,8.26,AS,1728997700
205,minas de marcona,-15.2119,-75.1103,17.1,61,79,1.73,PE,1728997701
206,colonia,50.9333,6.95,14.97,82,75,5.66,DE,1728997553
207,vorkuta,67.5,64.0,-1.95,92,100,4.18,RU,1728997704
208,hit,33.6416,42.8251,36.21,14,0,2.99,IQ,1728997705
209,saskatoon,52.1168,-106.6345,5.55,44,9,8.49,CA,1728997616
210,reisbach,48.5667,12.6333,12.51,81,100,3.46,DE,1728997707
211,lompoc,34.6391,-120.4579,15.01,90,100,0.0,US,1728997708
212,arraial do cabo,-22.9661,-42.0278,24.92,57,75,6.69,BR,1728997709
213,conde,-7.2597,-34.9075,29.7,54,75,5.66,BR,1728997711
214,chicoana,-25.1009,-65.5331,24.78,65,44,1.66,AR,1728997712
215,langzhong,31.5504,105.9938,22.73,62,1,1.18,CN,1728997713
216,tadine,-21.55,167.8833,20.76,75,75,4.96,NC,1728997714
217,el bolson,-41.9667,-71.5167,10.35,65,100,0.88,AR,1728997498
218,fort st. john,56.2499,-120.8529,3.56,59,0,2.18,CA,1728997716
219,sanibel,26.449,-82.0223,24.45,84,0,0.45,US,1728997661
220,puerto ayora,-0.7393,-90.3518,19.75,98,55,0.45,EC,1728997719
221,myanaung,18.2833,95.3167,27.07,80,98,1.5,MM,1728997693
222,inirida,3.8653,-67.9239,27.92,69,11,1.05,CO,1728997721
223,salaga,8.5508,-0.5188,30.09,61,89,2.28,GH,1728997722
224,kosh-agach,50.0,88.6667,-0.52,73,28,0.72,RU,1728997723
225,tateyama,34.9833,139.8667,23.86,65,100,4.6,JP,1728997724
226,mumford,5.2618,-0.759,27.31,74,99,5.4,GH,1728997725
227,benghazi,32.1167,20.0667,25.18,60,1,6.01,LY,1728997727
228,remire-montjoly,4.9167,-52.2667,32.02,62,75,2.98,GF,1728997728
229,tamanrasset,22.785,5.5228,31.95,13,40,3.6,DZ,1728997729
230,turpan,42.9333,89.1667,23.69,25,99,2.49,CN,1728997730
231,safaga,26.7292,33.9365,30.05,61,0,6.19,EG,1728997731
232,gubkinskiy,64.434,76.5026,0.41,91,100,2.72,RU,1728997733
233,lupane,-18.9315,27.807,26.94,37,44,6.17,ZW,1728997734
234,monrovia,6.3005,-10.7969,27.28,73,66,2.81,LR,1728997735
235,tarko-sale,64.9225,77.785,-0.4,88,100,2.75,RU,1728997736
236,afaahiti,-17.75,-149.2833,22.38,81,19,2.5,PF,1728997737
237,christchurch,-43.5333,172.6333,7.17,73,100,1.54,NZ,1728996943
238,tiksi,71.6872,128.8694,-15.13,96,90,5.01,RU,1728997740
239,haiku-pauwela,20.9219,-156.3051,23.44,83,0,8.49,US,1728997741
240,la ronge,55.1001,-105.2842,4.91,67,0,4.31,CA,1728997742
241,yelizovo,53.1873,158.3805,2.08,69,0,3.0,RU,1728997743
242,akrehamn,59.2667,5.1833,12.14,66,40,6.69,NO,1728997744
243,aliganj,27.5,79.1833,27.71,30,1,2.01,IN,1728997745
244,kuanda,56.3161,116.0806,-10.55,85,44,0.69,RU,1728997746
245,sitka,57.0531,-135.33,7.94,76,40,3.09,US,1728997696
246,acapulco de juarez,16.8634,-99.8901,25.9,89,75,1.54,MX,1728997503
247,la passe,45.5549,-0.8967,21.3,75,100,5.81,FR,1728997749
248,uusikaupunki,60.8004,21.4084,8.55,62,6,6.95,FI,1728997751
249,czersk,53.7959,17.9765,12.25,47,4,3.73,PL,1728997752
250,winchester,51.0651,-1.3187,17.76,86,40,5.66,GB,1728997753
251,imbituba,-28.24,-48.6703,20.8,74,84,7.16,BR,1728997754
252,puerto madero,14.7208,-92.4215,24.11,94,40,0.0,MX,1728997755
253,midvagur,62.0511,-7.1939,10.46,93,75,6.69,FO,1728997756
254,tamandare,-8.7597,-35.1047,27.88,60,38,4.15,BR,1728997757
255,manga,11.6636,-1.0731,32.67,45,37,4.34,BF,1728997576
256,utrik,11.2278,169.8474,28.58,81,100,8.79,MH,1728997759
257,kailua-kona,19.6406,-155.9956,25.98,74,0,1.54,US,1728997760
258,vila franca do campo,37.7167,-25.4333,22.23,70,45,5.34,PT,1728997762
259,nikolayevsk-on-amure,53.1406,140.73,5.97,91,100,0.86,RU,1728997763
260,sur,22.5667,59.5289,24.83,91,100,4.47,OM,1728997764
261,savanna-la-mar,18.219,-78.1332,28.29,83,100,1.11,JM,1728997765
262,angaur state,6.906,134.13,28.66,74,100,2.19,PW,1728997766
263,cockburn town,21.4612,-71.1419,29.32,73,75,5.06,TC,1728997767
264,bestobe,52.4994,73.0975,1.62,59,100,2.96,KZ,1728997768
265,howard springs,-12.497,131.047,28.95,89,0,3.21,AU,1728997769
266,gremda,34.75,10.7833,26.93,60,8,4.25,TN,1728997770
267,veinticinco de mayo,-35.4323,-60.1727,20.55,77,0,1.79,AR,1728997771
268,lake havasu city,34.4839,-114.3224,21.92,21,0,0.89,US,1728997772
269,valentin gomez farias,28.2167,-106.5833,14.24,57,2,3.25,MX,1728997773
270,galappo,-4.2667,35.85,32.7,17,43,4.34,TZ,1728997757
271,saint-philippe,-21.3585,55.7679,22.95,82,61,1.6,RE,1728997776
272,kaa-khem,51.6833,94.7333,2.92,51,0,1.89,RU,1728997777
273,new norfolk,-42.7826,147.0587,9.95,97,36,1.12,AU,1728997778
274,kiama,-34.6833,150.8667,13.1,77,100,0.45,AU,1728997779
275,kirovskiy,45.0917,133.5136,4.99,66,34,5.71,RU,1728997780
276,al kharijah,25.4514,30.5464,35.81,22,0,5.08,EG,1728997781
277,hawaiian paradise park,19.5933,-154.9731,22.72,99,100,3.09,US,1728997782
278,mpika,-11.8343,31.4529,23.08,49,100,2.88,ZM,1728997783
279,wynyard,-41.0,145.7167,12.45,73,100,9.39,AU,1728997784
280,sao francisco,-15.9486,-44.8644,28.12,46,100,3.48,BR,1728997542
281,genzano di roma,41.7013,12.6918,25.45,60,0,1.34,IT,1728997787
282,rawlins,41.7911,-107.2387,1.94,64,0,1.54,US,1728997509
283,berettyoujfalu,47.2167,21.55,12.28,71,87,5.94,HU,1728997789
284,luwuk,-0.9516,122.7875,23.73,88,98,1.56,ID,1728997790
285,moab,38.5733,-109.5498,11.94,48,7,1.26,US,1728997791
286,olinda,-8.0089,-34.8553,28.85,61,75,4.12,BR,1728997761
287,st. paul,44.9444,-93.0933,2.88,93,100,3.09,US,1728997793
288,prado,-17.3411,-39.2208,27.74,58,99,5.74,BR,1728997565
289,dolores,-36.3132,-57.6792,18.47,86,100,0.84,AR,1728997795
290,sweetwater,25.7634,-80.3731,27.22,86,75,1.54,US,1728997796
291,markovo,57.3206,107.0881,-2.61,93,100,4.31,RU,1728997798
292,huron,41.1501,-82.5499,5.51,96,92,2.72,US,1728997799
293,castillos,-34.1667,-53.8333,18.63,89,100,2.16,UY,1728997800
294,lincoln,40.8,-96.667,5.16,62,1,0.89,US,1728997595
295,tsiombe,-25.3,45.4833,28.44,38,0,9.83,MG,1728997639
296,farah,32.5,62.5,28.1,8,0,2.15,AF,1728997803
297,alotau,-10.3069,150.4462,24.66,95,85,1.39,PG,1728997804
298,tokmok,42.8417,75.3016,9.07,90,100,1.94,KG,1728997805
299,tobol'sk,58.2,68.2667,3.76,59,11,2.43,RU,1728997807
300,sittwe,20.15,92.9,28.39,72,7,3.81,MM,1728997808
301,laon,49.5667,3.6667,18.03,78,100,5.83,FR,1728997809
302,port douglas,-16.4833,145.4667,24.34,85,76,5.96,AU,1728997810
303,mana,5.6592,-53.7767,29.79,63,67,3.4,GF,1728997811
304,isfahan,32.6572,51.6776,26.8,13,1,2.21,IR,1728997812
305,isla mujeres,21.2311,-86.731,24.03,79,88,1.14,MX,1728997813
306,dryden,49.7833,-92.7503,-2.71,94,6,0.73,CA,1728997814
307,gisborne,-38.6533,178.0042,9.72,79,68,6.69,NZ,1728997816
308,dudinka,69.4058,86.1778,-18.76,95,7,4.57,RU,1728997817
309,kavieng,-2.5744,150.7967,27.78,81,100,11.24,PG,1728997818
310,kingaroy,-26.5333,151.8333,14.78,95,100,1.38,AU,1728997819
311,skovorodino,53.9833,123.9167,-2.27,44,98,0.97,RU,1728997820
312,sandnessjoen,66.0217,12.6316,6.06,75,75,7.2,NO,1728997821
313,kayangel,8.0823,134.7173,28.61,70,100,1.23,PW,1728997822
314,beyneu,45.3167,55.2,9.84,25,0,1.98,KZ,1728997823
315,midland,31.9974,-102.0779,15.35,54,0,1.54,US,1728997610
316,santa elena de uairen,4.6167,-61.1333,26.8,51,12,0.75,VE,1728997826
317,san patricio,28.017,-97.5169,16.97,72,0,2.6,US,1728997827
318,hirara,24.8,125.2833,27.9,81,15,6.66,JP,1728997828
319,loango,-4.6719,11.8312,26.33,78,98,4.9,CG,1728997829
320,eureka,40.8021,-124.1637,12.01,99,100,1.13,US,1728997537
321,bargaal,11.2864,51.0773,29.37,58,80,2.25,SO,1728997831
322,nova olimpia,-14.7972,-57.2881,32.81,46,94,1.75,BR,1728997832
323,shingu,33.7333,135.9833,21.97,91,93,0.87,JP,1728997833
324,gilgit,35.9221,74.3087,19.77,29,9,1.23,PK,1728997834
325,alofi,-19.0595,-169.9187,21.94,94,40,1.03,NU,1728997705
326,hell-ville,-13.4,48.2667,26.61,74,11,8.25,MG,1728997837
327,amga,60.8953,131.9608,-11.05,96,100,1.37,RU,1728997838
328,scottburgh,-30.2867,30.7532,19.03,56,19,7.16,ZA,1728997839
329,glogow malopolski,50.1512,21.9629,11.99,71,75,3.6,PL,1728997840
330,tomohon,1.3346,124.8392,20.52,92,49,1.14,ID,1728997841
331,irymple,-34.25,142.1667,16.72,70,100,3.87,AU,1728997843
332,porto novo,6.4965,2.6036,30.9,66,99,1.9,BJ,1728997573
333,berezovyy,51.6667,135.7,1.28,67,44,2.84,RU,1728997845
334,kodiak,57.79,-152.4072,6.73,76,40,3.6,US,1728997846
335,banca,46.3,27.8,15.8,46,88,2.78,RO,1728997847
336,neiafu,-18.65,-173.9833,25.38,83,75,5.14,TO,1728997848
337,dunedin,-45.8742,170.5036,7.11,73,0,1.79,NZ,1728997712
338,ghat,24.9647,10.1728,37.13,11,3,2.17,LY,1728997850
339,santana do livramento,-30.8908,-55.5328,19.5,99,100,2.39,BR,1728997578
340,rawson,-43.3002,-65.1023,17.16,45,0,1.54,AR,1728997853
341,kolonia town,6.964,158.206,27.0,89,100,2.06,FM,1728997854
342,sindirgi,39.2413,28.1784,25.77,27,27,5.47,TR,1728997855
343,ciudad del carmen,18.6333,-91.8333,24.02,94,40,0.0,MX,1728997856
344,vallenar,-28.5708,-70.7581,25.45,23,0,1.83,CL,1728997857
345,tauranga,-37.6861,176.1667,13.25,72,100,1.78,NZ,1728997858
346,san antonio de pale,-1.4014,5.6325,26.2,74,31,4.45,GQ,1728997859
347,la paz,-16.5,-68.15,11.99,67,20,1.03,BO,1728997687
348,sosnovo-ozerskoye,52.5249,111.5418,-4.16,62,22,3.79,RU,1728997862
349,olean,42.0776,-78.4297,3.7,100,100,0.0,US,1728997863
350,faya-largeau,17.9257,19.1043,38.51,8,6,5.75,TD,1728997864
351,aulnoye-aymeries,50.2014,3.8384,18.53,84,100,3.99,FR,1728997865
352,hassi messaoud,31.6804,6.0729,35.37,22,11,5.43,DZ,1728997866
353,bridgewater,44.3835,-64.5155,11.46,76,7,6.26,CA,1728997867
354,saynshand,44.8824,110.1163,7.03,42,6,4.52,MN,1728997869
355,dongning,44.0622,131.1207,5.27,58,1,6.18,CN,1728997870
356,nago,26.5881,127.9761,25.99,88,22,1.69,JP,1728997871
357,novo aripuana,-5.1206,-60.3797,35.43,36,93,1.42,BR,1728997872
358,nyurba,63.2842,118.3319,-4.73,94,93,3.28,RU,1728997873
359,impfondo,1.6381,18.0667,24.82,93,100,1.3,CG,1728997874
360,sangmelima,2.9333,11.9833,25.14,78,100,1.78,CM,1728997875
361,aykhal,66.0,111.5,-13.62,95,100,4.41,RU,1728997876
362,cabedelo,-6.9811,-34.8339,30.37,65,64,5.56,BR,1728997877
363,vadso,70.0744,29.7487,5.09,75,0,4.63,NO,1728997879
364,jolo,6.05,121.0167,26.11,87,42,0.38,PH,1728997880
365,mukalla,14.5425,49.1242,30.52,60,14,2.54,YE,1728997881
366,chegdomyn,51.1167,133.0167,-2.84,65,40,1.38,RU,1728997882
367,borogontsy,62.6683,131.1683,-10.14,97,100,1.25,RU,1728997883
368,belmonte,-15.8631,-38.8828,25.08,75,100,5.38,BR,1728997884
369,barah,13.7,30.3667,37.77,18,100,1.48,SD,1728997885
370,marsh harbour,26.5412,-77.0636,26.77,51,88,3.26,BS,1728997886
371,presidente franco,-25.5333,-54.6167,26.21,61,0,4.12,PY,1728997887
372,brisas de zicatela,15.8369,-97.0419,23.29,88,20,3.6,MX,1728997889
373,hami,42.8,93.45,18.63,25,7,1.32,CN,1728997774
374,new plymouth,-39.0667,174.0833,9.34,100,98,5.27,NZ,1728997765
375,curaca,-8.9903,-39.9094,30.68,40,23,5.95,BR,1728997892
376,khandyga,62.6667,135.6,-12.17,97,100,0.39,RU,1728997893
377,chapaev,50.2,51.1667,9.65,21,91,3.39,KZ,1728997894
378,palanga,55.9175,21.0686,10.01,81,75,2.57,LT,1728997895
379,rio grande,-32.035,-52.0986,18.8,94,100,6.5,BR,1728997896
380,juegang,32.3174,121.1855,19.81,89,100,3.09,CN,1728997897
381,sol'-iletsk,51.1631,54.9918,7.47,27,0,1.98,RU,1728997898
382,baijiantan,45.6333,85.1833,13.76,46,100,1.47,CN,1728997899
383,laminusa,5.5549,120.9136,28.99,72,16,1.1,PH,1728997901
384,nemuro,43.3236,145.575,16.55,87,84,10.86,JP,1728997902
385,kavaratti,10.5669,72.642,27.1,84,100,3.52,IN,1728997903
386,zabol,32.25,67.25,20.96,14,0,4.77,AF,1728997904
387,noosa heads,-26.3833,153.15,20.06,80,33,1.99,AU,1728997905
388,uyuni,-20.4597,-66.825,12.26,34,2,2.42,BO,1728997840
389,kapa'a,22.0752,-159.319,26.18,89,0,6.69,US,1728997875
390,quellon,-43.1167,-73.6167,9.18,84,69,2.05,CL,1728997908
391,olyokminsk,60.3736,120.4264,-2.88,87,97,3.0,RU,1728997909
392,magadan,59.5667,150.8,4.16,94,100,8.14,RU,1728997910
393,siwa oasis,29.2041,25.5195,29.28,33,0,2.58,EG,1728997912
394,luohe,33.5717,114.0353,23.3,50,99,2.99,CN,1728997913
395,jasper,37.2001,-94.3502,7.03,72,0,2.57,US,1728997778
396,rio de janeiro,-22.9028,-43.2075,26.0,73,40,4.12,BR,1728997645
397,howrah,22.5892,88.3103,31.0,62,40,0.0,IN,1728997916
398,boa vista,2.8197,-60.6733,29.99,62,0,4.63,BR,1728997917
399,sunne,59.8376,13.143,8.49,58,12,2.48,SE,1728997918
400,east wenatchee bench,47.4257,-120.2812,14.62,73,0,1.54,US,1728997919
401,nema,57.5067,50.5011,6.97,32,8,4.59,RU,1728997920
402,puerto baquerizo moreno,-0.9,-89.6,20.64,87,71,4.03,EC,1728997921
403,taoudenni,22.6783,-3.9836,40.57,10,36,3.66,ML,1728997922
404,sao joao da barra,-21.6403,-41.0511,26.05,67,72,5.11,BR,1728997923
405,kingscliff,-28.2667,153.5667,17.89,82,82,3.09,AU,1728997925
406,dapa,9.7594,126.0531,27.88,74,57,1.54,PH,1728997926
407,malvan,16.0667,73.4667,27.2,81,100,1.42,IN,1728997927
408,zhosaly,45.4878,64.0781,5.15,57,67,4.48,KZ,1728997928
409,fale old settlement,-9.3852,-171.2468,27.98,76,74,3.63,TK,1728997929
410,mangrol,21.1167,70.1167,28.86,79,100,4.73,IN,1728997930
411,guanica,17.9716,-66.908,31.59,65,100,6.2,PR,1728997931
412,hadibu,12.65,54.0333,28.36,66,23,1.09,YE,1728997932
413,shalqar,47.8333,59.6,7.41,45,9,3.86,KZ,1728997933
414,ataq,14.5377,46.8319,33.1,12,100,8.11,YE,1728997934
415,langsa,4.4683,97.9683,24.2,95,100,0.96,ID,1728997936
416,edd,13.9297,41.6925,32.52,62,8,5.52,ER,1728997937
417,ingeniero jacobacci,-41.3427,-69.5448,11.7,38,100,1.91,AR,1728997938
418,pacific grove,36.6177,-121.9166,13.82,96,100,2.57,US,1728997939
419,zheleznogorsk-ilimskiy,56.5768,104.1217,-3.31,95,100,4.37,RU,1728997941
420,lobujya,27.95,86.8167,-7.7,64,18,4.04,NP,1728997942
421,umba,66.6871,34.3429,3.98,97,100,3.62,RU,1728997943
422,carbonear,47.7332,-53.2148,12.86,97,100,8.21,CA,1728997944
423,ode,7.7899,5.7117,27.23,70,92,1.05,NG,1728997945
424,yacimiento rio turbio,-51.5732,-72.3508,6.66,76,75,7.2,AR,1728997946
425,ambodifotatra,-16.9833,49.85,24.61,79,0,7.98,MG,1728997948
426,bodo,67.28,14.405,6.02,85,75,5.66,NO,1728997949
427,cidreira,-30.1811,-50.2056,20.51,79,100,7.46,BR,1728997875
428,bardai,11.65,7.2333,31.89,40,41,3.07,NG,1728997951
429,guane,22.2025,-84.0875,25.84,83,92,1.03,CU,1728997952
430,ortaca,36.8294,28.7708,26.89,54,40,3.09,TR,1728997953
431,tommot,58.9564,126.2925,-3.3,71,99,3.89,RU,1728997954
432,san julian,21.0167,-102.1667,11.38,63,11,1.26,MX,1728997956
433,semirom,31.4167,51.5667,17.04,16,0,3.85,IR,1728997957
434,maceio,-9.6658,-35.7353,28.69,65,75,2.06,BR,1728997914
435,general conesa,-40.1,-64.4333,20.59,42,0,2.97,AR,1728997959
436,anna regina,7.2644,-58.5077,29.96,64,61,2.83,GY,1728997960
437,fada,7.25,4.0667,30.78,61,45,0.92,NG,1728997961
438,pisco,-13.7,-76.2167,18.34,88,100,2.06,PE,1728997962
439,chardara,41.2547,67.9692,14.42,30,100,1.94,KZ,1728997964
440,mitu,1.1983,-70.1733,24.84,85,97,0.91,CO,1728997965
441,bodaybo,57.8506,114.1933,-2.55,85,100,3.93,RU,1728997966
442,clinton,42.587,-82.9199,6.22,85,75,3.6,US,1728997815
443,trairi,-3.2778,-39.2689,29.98,54,74,6.82,BR,1728997803
444,weno,7.4515,151.8468,29.34,72,100,5.66,FM,1728997969
445,airway heights,47.6446,-117.5933,8.9,76,0,0.0,US,1728997816
446,palikir - national government center,6.9248,158.1611,26.41,89,100,2.06,FM,1728997971
447,al hazm,16.1641,44.7769,33.59,11,37,5.31,YE,1728997973
448,datia,25.6667,78.4667,28.46,32,6,1.37,IN,1728997974
449,bambanglipuro,-7.95,110.2833,25.22,82,100,1.85,ID,1728997975
450,vanimo,-2.6741,141.3028,26.75,86,100,1.19,PG,1728997976
451,porbandar,21.6422,69.6093,29.07,75,100,4.93,IN,1728997977
452,wagar,16.1525,36.2032,39.42,15,50,3.65,SD,1728997978
453,bau,7.4053,124.6497,23.73,92,100,1.47,PH,1728997979
454,canton,23.1167,113.25,29.98,55,14,4.03,CN,1728997922
455,boyolangu,-8.1181,111.8935,23.89,90,100,0.42,ID,1728997981
456,yanggu,36.1106,115.7753,19.54,64,0,5.77,CN,1728997982
457,kuching,1.55,110.3333,26.72,93,20,2.06,MY,1728997895
458,geraldton,-28.7667,114.6,15.23,77,0,0.51,AU,1728997984
459,wanning,18.8003,110.3967,25.72,89,100,2.31,CN,1728997986
460,villa maria,-32.4075,-63.2402,16.57,90,47,3.41,AR,1728997987
461,kayyerkan,69.3786,87.7439,-14.99,98,66,7.99,RU,1728997988
462,kutum,14.2,24.6667,31.95,17,0,3.96,SD,1728997989
463,molde,62.7375,7.1591,7.91,87,75,3.6,NO,1728997990
464,zaozersk,69.4005,32.4476,3.67,97,100,5.6,RU,1728997991
465,mizque,-17.941,-65.3402,23.14,46,100,1.08,BO,1728997916
466,nishinoomote,30.7333,131.0,26.12,84,100,8.1,JP,1728997993
467,barakani,-12.1356,44.4317,26.61,73,34,3.68,KM,1728997994
468,shimoda,34.6667,138.95,22.02,73,100,0.8,JP,1728997996
469,manitowoc,44.0667,-87.8001,4.1,86,0,7.2,US,1728997997
470,bakaly,55.1789,53.8028,7.43,35,0,2.45,RU,1728997998
471,tomatlan,19.9333,-105.25,21.62,93,8,1.74,MX,1728997999
472,oamaru,-45.0784,170.9801,4.65,82,68,1.2,NZ,1728998000
473,morehead,37.2711,-87.1764,9.86,90,100,0.0,US,1728998001
474,dakhla,23.6848,-15.958,21.0,82,0,4.16,EH,1728998002
475,fedorovskiy,45.0972,40.9517,16.89,61,100,4.81,RU,1728997992
476,at taj,24.2049,23.2857,33.76,22,0,3.69,LY,1728998004
477,dadukou,26.5479,101.7054,18.01,90,29,0.66,CN,1728998005
478,dori,14.0354,-0.0345,36.88,24,23,2.34,BF,1728998006
479,vila velha,-20.3297,-40.2925,24.97,73,75,3.09,BR,1728998008
480,malango,-2.9627,119.9001,20.24,100,100,0.61,ID,1728998009
481,rabo de peixe,37.8,-25.5833,21.73,64,40,6.69,PT,1728998010
482,masumbwe,-3.6333,32.1833,33.71,21,79,0.71,TZ,1728997757
483,sao jose da coroa grande,-8.8978,-35.1478,27.63,62,64,4.4,BR,1728998012
484,shache,38.4167,77.2406,19.57,21,0,1.72,CN,1728998013
485,nagqu,31.5,92.0,1.87,22,100,3.3,CN,1728998014
486,pobugskoye,48.1658,30.5927,14.88,41,83,4.39,UA,1728998015
487,ola,59.5833,151.2833,4.75,90,100,6.28,RU,1728998017
488,laguna,38.421,-121.4238,15.59,87,0,1.54,US,1728998018
489,teguise,29.0605,-13.564,22.12,78,20,5.14,ES,1728998019
490,chernyshevskiy,63.0128,112.4714,-4.78,88,98,4.19,RU,1728998020
491,tazovsky,67.4667,78.7,-7.55,79,100,5.75,RU,1728998021
492,al ghayzah,16.2079,52.176,29.14,65,59,7.15,YE,1728998022
493,reggane,26.7158,0.1714,37.81,15,100,1.63,DZ,1728998023
494,buka,40.8108,69.1986,10.26,93,100,1.5,UZ,1728998024
495,senj,44.9894,14.9058,21.99,69,51,1.32,HR,1728998025
496,vyaz'ma,55.2104,34.2951,7.41,89,100,3.19,RU,1728998027
497,santa ana,33.7456,-117.8678,18.03,84,100,1.54,US,1728998028
498,guerrero negro,27.9769,-114.0611,18.35,78,97,5.77,MX,1728998029
499,wakkanai,45.4094,141.6739,15.87,95,100,11.17,JP,1728998030
500,kampong speu,11.5,104.3333,25.06,92,100,2.41,KH,1728998031
501,yorkton,51.2167,-102.4677,-0.09,86,75,6.69,CA,1728998032
502,saint-francois,46.4154,3.9054,22.69,75,0,2.57,FR,1728998033
503,posto fiscal rolim de moura,-13.0833,-62.2667,32.4,46,76,1.48,BR,1728998034
504,westport,41.1415,-73.3579,9.04,77,0,3.6,US,1728997831
505,pieksamaki,62.3,27.1333,6.37,84,100,3.99,FI,1728998036
506,gingelom,50.75,5.1333,17.47,77,100,4.27,BE,1728998037
507,katabu,-4.9333,122.5167,24.54,90,100,1.61,ID,1728998039
508,cape coast,5.1053,-1.2466,28.0,72,48,4.76,GH,1728997914
509,ashburton,-37.8626,145.0794,17.14,67,100,1.0,AU,1728998041
510,santana,-0.0583,-51.1817,32.1,62,75,4.12,BR,1728998042
511,bayanaul,50.7889,75.6956,-3.76,85,99,1.99,KZ,1728998043
512,pedernales,18.0384,-71.744,29.08,56,5,1.7,DO,1728998044
513,alaghsas,17.0187,8.0168,38.94,8,0,5.14,NE,1728998045
514,vorgashor,67.5833,63.95,-2.02,92,100,4.28,RU,1728998046
515,hino,35.6731,139.4003,21.01,75,40,0.0,JP,1728998047
516,bayanhongor,46.7167,100.1167,0.66,74,88,2.39,MN,1728998048
517,tazacorte,28.629,-17.9293,24.54,98,40,2.24,ES,1728998049
518,salinopolis,-0.6136,-47.3561,29.15,67,22,5.49,BR,1728998051
519,bubaque,11.2833,-15.8333,26.53,75,100,0.58,GW,1728998052
520,daru,-9.0763,143.2092,26.3,82,99,4.69,PG,1728998053
521,coxen hole,16.3244,-86.5366,26.6,83,40,1.03,HN,1728998054
522,auraiya,26.4667,79.5167,27.93,31,96,2.69,IN,1728997889
523,kingsville,27.5159,-97.8561,17.79,97,0,0.0,US,1728997851
524,copiapo,-27.3667,-70.3333,23.41,31,0,1.86,CL,1728998057
525,alagoinhas,-12.1356,-38.4192,30.9,47,79,2.09,BR,1728998036
526,yaren,-0.5472,166.916,28.32,77,84,5.76,NR,1728998060
527,monroeville,40.4212,-79.7881,6.17,92,100,0.45,US,1728997764
528,chetwayi,10.5333,76.05,25.58,84,100,2.67,IN,1728998062
529,lido di ostia,41.7321,12.2765,26.91,53,0,3.09,IT,1728998063
530,uvalde,29.3669,-99.767,18.56,36,0,0.0,US,1728998064
531,touros,-5.1989,-35.4608,28.93,54,18,6.39,BR,1728998065
532,coronel suarez,-37.4547,-61.9334,17.56,81,67,2.26,AR,1728998067
533,ulladulla,-35.35,150.4667,12.73,62,100,1.55,AU,1728998068
534,san andres,12.5847,-81.7006,29.01,74,20,4.12,CO,1728998069
535,maitum,6.0392,124.4986,26.1,86,99,2.29,PH,1728998070
536,guarapari,-20.6667,-40.4975,24.14,69,93,2.98,BR,1728998071
537,vernon,50.2581,-119.2691,10.74,84,100,0.51,CA,1728998072
538,voi,-3.3945,38.563,33.25,31,51,5.61,KE,1728998073
539,fort bragg,35.139,-79.006,11.75,71,0,2.24,US,1728998074
540,port saint john's,-31.6229,29.5448,17.98,55,63,4.21,ZA,1728998075
541,nova londrina,-22.7658,-52.985,27.41,52,100,6.26,BR,1728998076
542,banda aceh,5.5577,95.3222,27.32,71,100,0.43,ID,1728998078
543,prince albert,53.2001,-105.7677,3.97,75,20,2.06,CA,1728998079
544,palmer,42.1584,-72.3287,6.91,76,40,3.09,US,1728998080
545,baruun-urt,46.6806,113.2792,1.63,42,95,3.36,MN,1728998082
546,huarmey,-10.0681,-78.1522,17.84,86,45,2.47,PE,1728998083
547,cloquet,46.7216,-92.4594,0.38,96,100,4.12,US,1728998084
548,maryville,35.7565,-83.9705,7.3,93,100,0.0,US,1728997799
549,tahe,52.3333,124.7333,-2.17,45,26,1.34,CN,1728998086
550,tanout,14.9709,8.8879,36.53,13,30,4.58,NE,1728998087
551,fairfield,41.2668,-73.3162,7.31,79,0,3.6,US,1728997929
552,slave lake,55.2834,-114.769,8.99,57,100,5.66,CA,1728998090
553,bandon,51.7469,-8.7425,14.77,98,100,6.88,IE,1728998091
554,suva,-18.1416,178.4415,23.71,94,100,3.09,FJ,1728998092
555,melfort,52.8667,-104.6177,5.51,57,4,7.67,CA,1728997999
556,chibougamau,49.9168,-74.3659,0.79,93,100,4.63,CA,1728998094
557,taulaga,-11.0553,-171.0883,27.26,81,76,5.44,AS,1728998095
558,tambopata,-12.7333,-69.1833,28.94,70,0,3.09,PE,1728998096
559,lautoka,-17.6167,177.4667,22.92,94,75,2.06,FJ,1728998097
560,zinjibar,13.1287,45.3807,32.28,61,71,5.55,YE,1728998098
561,gornozavodsk,58.3758,58.3211,0.64,63,6,0.52,RU,1728998067
562,jinghong,21.991,100.7341,20.35,98,15,1.73,CN,1728998101
563,garissa,-0.4536,39.6401,35.4,31,99,6.8,KE,1728998102
564,abbeville,50.1,1.8333,17.49,75,100,6.6,FR,1728998103
565,ustka,54.5805,16.8619,11.46,69,100,4.13,PL,1728998105
566,port macquarie,-31.4333,152.9167,16.71,82,98,0.89,AU,1728998106
567,tromso,69.6496,18.957,3.01,93,75,1.54,NO,1728998107
568,happy valley-goose bay,53.3168,-60.3315,2.17,93,75,6.17,CA,1728998108
569,ghatanji,20.1333,78.3167,27.26,73,100,1.56,IN,1728998109
570,inongo,-1.95,18.2667,26.55,70,76,1.67,CD,1728998110
571,champerico,14.3,-91.9167,25.73,80,98,1.83,GT,1728998111
572,rabigh,22.7986,39.0349,34.18,41,0,8.69,SA,1728998112
573,kristinestad,62.2743,21.376,7.66,66,1,5.77,FI,1728998114
574,birobidzhan,48.8,132.95,1.55,46,18,4.63,RU,1728998115
575,suwayr,30.1171,40.3893,33.21,15,0,1.12,SA,1728998116
576,holualoa,19.6228,-155.9522,23.91,79,0,1.54,US,1728998117
577,port blair,11.6667,92.75,27.02,89,40,1.03,IN,1728998118
578,visby,57.6409,18.296,9.12,66,20,5.66,SE,1728998119
579,koudougou,12.25,-2.3667,33.81,40,10,4.17,BF,1728998120
580,tenenkou,14.4572,-4.9169,35.18,35,20,2.93,ML,1728998121
581,lichtenburg,-26.152,26.1597,27.61,26,94,7.94,ZA,1728998122
582,jan kempdorp,-27.9225,24.8305,33.73,14,100,5.29,ZA,1728998123
583,pangai,-19.8,-174.35,24.92,81,100,6.5,TO,1728998125
584,shitanjing,39.2342,106.3439,14.79,63,95,3.74,CN,1728998126
585,birao,10.2849,22.7882,30.76,55,100,4.26,CF,1728998127
586,estacion santa engracia,24.0159,-99.2015,17.96,68,0,0.3,MX,1728998128
587,saurimo,-9.6608,20.3916,28.56,44,92,2.54,AO,1728998129
588,port alberni,49.2413,-124.8028,8.77,90,100,0.74,CA,1728997979
589,kukawa,12.9234,13.5606,35.14,26,99,5.22,NG,1728998131
